[
  {
    "id": "silk-canal",
    "order": 1,
    "shortName": "丝路运河",
    "title": "丝路与运河之路",
    "kicker": "帕米尔以东，东海以西",
    "mainFile": "丝路运河主线.kml",
    "branchFile": "丝路运河支线.kml",
    "mainLabel": "帕米尔、南疆绿洲、伊犁河谷、河西走廊、关中中原、运河水网与东海",
    "branchLabel": "乌鲁木齐北望阿勒泰与喀纳斯",
    "color": "#c9652c",
    "accent": "#246b68",
    "image": "assets/route-thumbnails/silk-canal.svg",
    "tagline": "从帕米尔落入喀什，再经塔里木北缘、天山、河西、关中、中原、江淮运河和江南港口东行，丝路运河不是把两条古道强行相接，而是把山口、水源、城邦、漕渠和海潮放在同一卷长图里。",
    "overview": "这条线的力量来自连续的地理换景：高原山口把人送入绿洲，荒漠边缘养出城镇，河西走廊以祁连山雪水维持道路，古都与运河接过陆路风尘，东海港口把漫长内陆重新打开。",
    "bestFor": [
      "想一次读懂中国东西向地理的人",
      "喜欢古道、石窟、关城、古都与水乡的人",
      "愿意把长线拆成数次章节旅行的人"
    ],
    "season": "春秋最从容；西域、河西、江南各有自己的光线和风，拆段行走比一口气横穿更能读出层次。",
    "highlights": [
      "帕米尔与喀什绿洲",
      "库车、轮台、库尔勒一线",
      "伊犁、赛里木湖与独山子",
      "吐鲁番、哈密与河西走廊",
      "敦煌、嘉峪关、张掖",
      "兰州、天水、西安、洛阳",
      "徐州、淮安、扬州与江南运河",
      "杭州、绍兴、宁波、舟山",
      "阿勒泰与喀纳斯支线"
    ],
    "markers": [
      {
        "name": "红其拉甫",
        "lon": 75.55,
        "lat": 36.85,
        "type": "main"
      },
      {
        "name": "塔什库尔干",
        "lon": 75.23,
        "lat": 37.77,
        "type": "main"
      },
      {
        "name": "喀什",
        "lon": 75.99,
        "lat": 39.47,
        "type": "main"
      },
      {
        "name": "阿克苏",
        "lon": 80.26,
        "lat": 41.17,
        "type": "main"
      },
      {
        "name": "库车",
        "lon": 82.96,
        "lat": 41.72,
        "type": "main"
      },
      {
        "name": "库尔勒",
        "lon": 86.15,
        "lat": 41.77,
        "type": "main"
      },
      {
        "name": "伊宁",
        "lon": 81.32,
        "lat": 43.92,
        "type": "main"
      },
      {
        "name": "赛里木湖",
        "lon": 81.2,
        "lat": 44.6,
        "type": "main"
      },
      {
        "name": "独山子",
        "lon": 84.89,
        "lat": 44.33,
        "type": "main"
      },
      {
        "name": "乌鲁木齐",
        "lon": 87.62,
        "lat": 43.82,
        "type": "shared"
      },
      {
        "name": "吐鲁番",
        "lon": 89.19,
        "lat": 42.95,
        "type": "main"
      },
      {
        "name": "哈密",
        "lon": 93.51,
        "lat": 42.82,
        "type": "main"
      },
      {
        "name": "敦煌",
        "lon": 94.66,
        "lat": 40.14,
        "type": "main"
      },
      {
        "name": "嘉峪关",
        "lon": 98.29,
        "lat": 39.77,
        "type": "main"
      },
      {
        "name": "张掖",
        "lon": 100.45,
        "lat": 38.93,
        "type": "main"
      },
      {
        "name": "兰州",
        "lon": 103.84,
        "lat": 36.06,
        "type": "main"
      },
      {
        "name": "西安",
        "lon": 108.94,
        "lat": 34.34,
        "type": "main"
      },
      {
        "name": "洛阳",
        "lon": 112.45,
        "lat": 34.62,
        "type": "main"
      },
      {
        "name": "徐州",
        "lon": 117.29,
        "lat": 34.2,
        "type": "main"
      },
      {
        "name": "淮安",
        "lon": 119.02,
        "lat": 33.61,
        "type": "main"
      },
      {
        "name": "扬州",
        "lon": 119.42,
        "lat": 32.39,
        "type": "main"
      },
      {
        "name": "杭州",
        "lon": 120.16,
        "lat": 30.25,
        "type": "main"
      },
      {
        "name": "舟山",
        "lon": 122.2,
        "lat": 29.99,
        "type": "main"
      },
      {
        "name": "阿勒泰",
        "lon": 88.14,
        "lat": 47.85,
        "type": "branch"
      },
      {
        "name": "喀纳斯",
        "lon": 87.04,
        "lat": 48.69,
        "type": "branch"
      }
    ],
    "segments": [
      {
        "name": "帕米尔与喀什",
        "range": "红其拉甫 / 塔什库尔干 - 喀什",
        "copy": "丝路运河的第一段不是从平地出发，而是从帕米尔的高处开场。红其拉甫、塔什库尔干和喀什之间，G314与中巴公路把国门、雪峰、河谷、湿地和绿洲城市接成一条清晰的下降线：先在稀薄空气里看山，再在喀什的市声中听见丝路。"
      },
      {
        "name": "塔里木北缘",
        "range": "喀什 - 阿克苏 - 库车 - 库尔勒",
        "copy": "从喀什向东，G314把塔里木盆地北缘的一串绿洲重新串起：喀什、阿克苏、库车、库尔勒不是孤立的城市，而是帕米尔、天山雪水与塔克拉玛干沙漠边界共同塑出的停靠点。"
      },
      {
        "name": "天山西廊",
        "range": "库尔勒 - 伊宁 - 赛里木湖 - 独山子",
        "copy": "天山西廊从库尔勒开始换气。孔雀河穿过铁门关峡谷，把焉耆盆地与塔里木盆地之间的天险压成一处关口；再向西北，G218伊若线沿开都河、巩乃斯河和那拉提山地一带抬升，把塔里木北缘的干热渐渐交给天山内部的草甸、云杉和雪水。"
      },
      {
        "name": "天山东行",
        "range": "乌鲁木齐 - 吐鲁番 - 哈密",
        "copy": "乌鲁木齐到哈密这一程，是丝路从天山北坡转向东疆盆地的关键换面。路先贴着准噶尔盆地南缘离开乌鲁木齐，再借达坂城一带的天山缺口下探吐鲁番，最后沿火焰山、鄯善、哈密一线接近新疆东口。"
      },
      {
        "name": "河西走廊",
        "range": "哈密 - 敦煌 - 嘉峪关 - 张掖 - 武威 - 兰州",
        "copy": "从哈密向东，东天山的影子渐渐退到身后，星星峡像一道风蚀的门，把新疆盆地与甘肃走廊扣在一起。"
      },
      {
        "name": "关中与中原",
        "range": "兰州 - 天水 - 宝鸡 - 西安 - 华山 - 洛阳",
        "copy": "这一段从兰州黄河谷地出发，先在金城一带完成一次古老的过河动作。兰州城不是被黄河随意穿过的城市，它的渡口、桥梁与关城共同决定了丝路东段的节奏：从河西走廊归来的驼队、军使、僧侣与货物，必须在这里辨认水势、关隘和通往陇右的山道。"
      },
      {
        "name": "运河北段",
        "range": "洛阳 - 徐州 - 宿迁 - 淮安 - 扬州",
        "copy": "这一段从洛阳出发，表面上离开了西域与关中，实际进入了另一种更深的道路史：粮食、盐、河工与都城财政共同塑成的水上中国。洛水、黄河、汴泗水系与京杭运河在这里反复交叠，水路的方向随着王朝中心改变而改变。"
      },
      {
        "name": "江南水网与东海",
        "range": "镇江 - 苏州 - 嘉兴 - 杭州 - 绍兴 - 宁波 - 舟山",
        "copy": "从镇江向东南，丝路与运河的叙事忽然换了声腔。"
      },
      {
        "name": "北疆支线",
        "range": "乌鲁木齐 - 阿勒泰 - 喀纳斯",
        "copy": "北疆支线从乌鲁木齐起步。这里不是绿洲边缘的一座孤城，而是天山北坡最醒目的城市节点：南侧雪岭抬高，北侧准噶尔盆地打开，冰雪融水沿冲洪积扇进入平原，铁路、公路、工矿与集市在山前叠成一条密集的现代走廊。"
      }
    ],
    "notes": [
      "可拆成西域、天山、河西、关中运河、江南东海五卷。",
      "北疆支线宜作为独立旁章，与伊犁、赛里木湖、阿勒泰一起阅读。",
      "这条线的美感在于从陆路驿站走向水路城市，节奏不必急。"
    ]
  },
  {
    "id": "coastal",
    "order": 2,
    "shortName": "沿海",
    "title": "中国海岸之路",
    "kicker": "沿陆地边缘听海",
    "mainFile": "沿海主线.kml",
    "branchFile": "沿海支线.kml",
    "mainLabel": "防川、辽东半岛、山东半岛、黄海、长三角、浙闽曲岸、珠江口、北部湾",
    "branchLabel": "台湾东海岸的山海支线",
    "color": "#1f78a8",
    "accent": "#c44e52",
    "image": "assets/route-thumbnails/coastal.svg",
    "tagline": "从图们江口的边境冷海，到辽东、山东、黄海湿地、浙闽曲岸、珠江口、北部湾和台湾东岸，海岸线不是一条风景线，而是界河、港口、盐场、侨乡、湾区和岛屿共同写出的陆地边缘史。",
    "overview": "这条路沿着中国陆地的边缘行进，海在不同纬度呈现完全不同的性格：东北有边界与冷雾，半岛有海防与港城，黄海有滩涂和盐业，东南有古港和侨乡，华南则在珠江口和北部湾之间转入热带边境。",
    "bestFor": [
      "想按海岸理解中国开放史的人",
      "喜欢半岛、港口、海湾和侨乡城市的人",
      "愿意把沿海拆成北方、江南、东南、岭南几段的人"
    ],
    "season": "海岸四季性格分明：北方看冷海与半岛，东南看曲岸与古港，岭南看暖湿海风。分省段行走最能避开季节的仓促。",
    "highlights": [
      "防川、珲春与长白山外缘",
      "丹东、大连与辽东半岛",
      "烟台、威海、青岛与山东半岛",
      "上海、宁波与长三角海岸",
      "温州、福州、泉州、厦门",
      "汕头、深圳、珠海与珠江口",
      "湛江、北海、防城港与东兴",
      "台湾东海岸支线"
    ],
    "markers": [
      {
        "name": "防川",
        "lon": 130.64,
        "lat": 42.43,
        "type": "main"
      },
      {
        "name": "珲春",
        "lon": 130.37,
        "lat": 42.86,
        "type": "main"
      },
      {
        "name": "长白山",
        "lon": 128.08,
        "lat": 42.02,
        "type": "main"
      },
      {
        "name": "丹东",
        "lon": 124.38,
        "lat": 40.13,
        "type": "main"
      },
      {
        "name": "大连",
        "lon": 121.61,
        "lat": 38.91,
        "type": "main"
      },
      {
        "name": "烟台",
        "lon": 121.39,
        "lat": 37.54,
        "type": "main"
      },
      {
        "name": "威海",
        "lon": 122.12,
        "lat": 37.51,
        "type": "main"
      },
      {
        "name": "青岛",
        "lon": 120.38,
        "lat": 36.07,
        "type": "main"
      },
      {
        "name": "连云港",
        "lon": 119.22,
        "lat": 34.6,
        "type": "main"
      },
      {
        "name": "上海",
        "lon": 121.47,
        "lat": 31.23,
        "type": "main"
      },
      {
        "name": "宁波",
        "lon": 121.55,
        "lat": 29.87,
        "type": "main"
      },
      {
        "name": "温州",
        "lon": 120.7,
        "lat": 27.99,
        "type": "main"
      },
      {
        "name": "福州",
        "lon": 119.3,
        "lat": 26.08,
        "type": "main"
      },
      {
        "name": "泉州",
        "lon": 118.68,
        "lat": 24.87,
        "type": "main"
      },
      {
        "name": "厦门",
        "lon": 118.08,
        "lat": 24.48,
        "type": "main"
      },
      {
        "name": "汕头",
        "lon": 116.68,
        "lat": 23.35,
        "type": "main"
      },
      {
        "name": "深圳",
        "lon": 114.06,
        "lat": 22.54,
        "type": "main"
      },
      {
        "name": "珠海",
        "lon": 113.57,
        "lat": 22.27,
        "type": "main"
      },
      {
        "name": "湛江",
        "lon": 110.36,
        "lat": 21.27,
        "type": "main"
      },
      {
        "name": "北海",
        "lon": 109.12,
        "lat": 21.48,
        "type": "main"
      },
      {
        "name": "东兴",
        "lon": 107.97,
        "lat": 21.55,
        "type": "main"
      },
      {
        "name": "台北",
        "lon": 121.56,
        "lat": 25.04,
        "type": "branch"
      },
      {
        "name": "花莲",
        "lon": 121.6,
        "lat": 23.99,
        "type": "branch"
      },
      {
        "name": "台东",
        "lon": 121.15,
        "lat": 22.76,
        "type": "branch"
      },
      {
        "name": "垦丁",
        "lon": 120.8,
        "lat": 21.95,
        "type": "branch"
      }
    ],
    "segments": [
      {
        "name": "东北海岸开场",
        "range": "防川 - 珲春 - 长白山外缘 - 丹东",
        "copy": "中国海岸线的东北开场，并不从沙滩和浪花开始，而是从防川的望海高地开始。"
      },
      {
        "name": "辽东与山东半岛",
        "range": "丹东 - 大连 - 烟台 - 威海 - 青岛",
        "copy": "丹东到青岛这一段，是中国海岸线由边境河口转入半岛港城的开篇。鸭绿江在这里放慢，带着长白山余脉的水量和泥沙，铺成潮滩、芦苇、浅海与候鸟的停歇地；公路从界河与黄海相接的地方出发，先读到的不是海的辽阔，而是河口湿地细密的呼吸。"
      },
      {
        "name": "黄海到长三角",
        "range": "青岛 - 连云港 - 盐城 - 上海",
        "copy": "青岛到上海这一段，是中国海岸线由北方半岛转入江海平原的明显转折。崂山和胶州湾还保留着山贴海、湾抱城的骨架，车向南过日照、海州湾，山势逐渐低下去，黄海的潮水、泥沙和滩涂开始成为主角。"
      },
      {
        "name": "浙闽曲岸",
        "range": "宁波 - 台州 - 温州 - 福州 - 泉州 - 厦门",
        "copy": "从宁波向南，海岸不再是一条温顺的线。"
      },
      {
        "name": "珠江口外缘",
        "range": "汕头 - 汕尾 - 深圳 - 珠海",
        "copy": "从汕头到珠海，这一段海岸把粤东的潮汕平原、红海湾的岬角、深圳东部的火山海岸和珠江口的岛屿水网连在一起。"
      },
      {
        "name": "北部湾收束",
        "range": "阳江 - 湛江 - 北海 - 防城港 - 东兴",
        "copy": "从阳江向西，海岸线不再只是珠江口外缘的余波，而开始收拢成北部湾的弧。海陵岛把南海的开阔浪色留在起笔处，十里银滩、闸坡渔港和“南海I号”让这一段先呈现为一部海洋史：沙洲、渔火、沉船、外销瓷，都在同一阵潮声里浮现。"
      },
      {
        "name": "台湾海岸支线",
        "range": "台北 - 宜兰 - 花莲 - 台东 - 垦丁",
        "copy": "这条台湾海岸支线从台北向东越过岛屿北端，先抵达宜兰的兰阳平原，再由苏澳、东澳、南澳进入苏花公路。"
      }
    ],
    "notes": [
      "沿海线宜按半岛、湾区和省段拆开。",
      "港口和海峡是这条线的骨节，城市之间的海岸性格比里程更重要。",
      "台湾支线不是附录，而是山海相逼的另一种海岸阅读。"
    ]
  },
  {
    "id": "yangtze",
    "order": 3,
    "shortName": "长江",
    "title": "长江源海之路",
    "kicker": "逆江而上，追水到云端",
    "mainFile": "长江主线.kml",
    "branchFile": "长江支线.kml",
    "mainLabel": "东海、长江口、下游城镇、中游湖区、三峡、巴蜀、藏东藏北与阿里",
    "branchLabel": "沱沱河、可可西里与格尔木的江源支线",
    "color": "#2f6f4e",
    "accent": "#8f5aa2",
    "image": "assets/route-thumbnails/yangtze.svg",
    "tagline": "长江源海之路从东海与上海出发，逆着江海口、下游城镇、中游湖区、三峡峡江、巴蜀腹地、藏东藏北和江源荒原回望一条大河，读的是中国水系怎样塑造城市、湖泊、峡谷和高原。",
    "overview": "这条线反向阅读长江：先看一条大河怎样进入海洋和现代城市，再回到古都江岸、湖区平原、峡江码头、巴蜀水网，最后抵达高原上尚未成为大江的寒冷水源。",
    "bestFor": [
      "想把长江当作地理系统来阅读的人",
      "喜欢江城、湖区、峡谷、盆地和高原的人",
      "愿意从城市水岸一路追到河源想象的人"
    ],
    "season": "下游和中游一年有多种面貌，高原段则更讲究窗口。把江口、峡江、巴蜀和青藏分章行走，长江会显出不同的水色。",
    "highlights": [
      "东海、上海与长江口",
      "南京、镇江、扬州与下游城市",
      "九江、武汉、岳阳与中游湖区",
      "宜昌、三峡、万州、重庆",
      "泸州、宜宾、乐山与四川盆地",
      "昌都、那曲、班戈与藏北",
      "沱沱河、可可西里、格尔木支线"
    ],
    "markers": [
      {
        "name": "上海",
        "lon": 121.47,
        "lat": 31.23,
        "type": "main"
      },
      {
        "name": "南通",
        "lon": 120.89,
        "lat": 31.98,
        "type": "main"
      },
      {
        "name": "南京",
        "lon": 118.8,
        "lat": 32.06,
        "type": "main"
      },
      {
        "name": "池州",
        "lon": 117.49,
        "lat": 30.66,
        "type": "main"
      },
      {
        "name": "九江",
        "lon": 116,
        "lat": 29.71,
        "type": "main"
      },
      {
        "name": "武汉",
        "lon": 114.31,
        "lat": 30.59,
        "type": "main"
      },
      {
        "name": "岳阳",
        "lon": 113.13,
        "lat": 29.37,
        "type": "main"
      },
      {
        "name": "荆州",
        "lon": 112.24,
        "lat": 30.34,
        "type": "main"
      },
      {
        "name": "宜昌",
        "lon": 111.29,
        "lat": 30.69,
        "type": "main"
      },
      {
        "name": "万州",
        "lon": 108.41,
        "lat": 30.81,
        "type": "main"
      },
      {
        "name": "重庆",
        "lon": 106.55,
        "lat": 29.56,
        "type": "main"
      },
      {
        "name": "宜宾",
        "lon": 104.64,
        "lat": 28.75,
        "type": "main"
      },
      {
        "name": "乐山",
        "lon": 103.77,
        "lat": 29.55,
        "type": "main"
      },
      {
        "name": "都江堰",
        "lon": 103.62,
        "lat": 31,
        "type": "main"
      },
      {
        "name": "昌都",
        "lon": 97.18,
        "lat": 31.14,
        "type": "main"
      },
      {
        "name": "那曲",
        "lon": 92.06,
        "lat": 31.48,
        "type": "main"
      },
      {
        "name": "班戈",
        "lon": 90.01,
        "lat": 31.39,
        "type": "main"
      },
      {
        "name": "阿里狮泉河",
        "lon": 80.1,
        "lat": 32.5,
        "type": "main"
      },
      {
        "name": "沱沱河",
        "lon": 92.44,
        "lat": 34.22,
        "type": "branch"
      },
      {
        "name": "可可西里",
        "lon": 93.34,
        "lat": 35.6,
        "type": "branch"
      },
      {
        "name": "格尔木",
        "lon": 94.9,
        "lat": 36.4,
        "type": "branch"
      }
    ],
    "segments": [
      {
        "name": "江海入口",
        "range": "东海 - 上海 - 南通 - 南京",
        "copy": "江海入口不是长江的句点，而是一台巨大的河口机器。东海的潮波日日向西推涌，长江的径流挟沙东下，咸淡水在吴淞口外反复缠绕、分层、翻卷，把崇明、长兴、横沙、九段沙和一连串水下浅滩塑成今日的口门格局。"
      },
      {
        "name": "下游城镇带",
        "range": "南京 - 池州 - 安庆 - 九江",
        "copy": "南京到九江这一段，是长江下游真正显出城镇密度的一程。"
      },
      {
        "name": "中游湖区",
        "range": "九江 - 武汉 - 岳阳 - 荆州",
        "copy": "九江到荆州这一段，长江不再只是峡谷里的一束水，也还没有完全进入下游的低平水网。"
      },
      {
        "name": "三峡与峡江",
        "range": "宜昌 - 万州 - 重庆",
        "copy": "从宜昌逆江而上，长江不再是江汉平原上舒展的水带，而是在南津关附近忽然收束，进入山与水彼此逼近的峡江。葛洲坝、三峡大坝与古老的西陵峡并立在这一带，使宜昌既像平原的尽头，也像山地长江的门槛。"
      },
      {
        "name": "巴蜀腹地",
        "range": "重庆 - 泸州 - 宜宾 - 乐山 - 都江堰",
        "copy": "从重庆到都江堰，这一段不是简单地离开峡江、进入盆地，而是沿着长江上游最密集的支流水网回溯。"
      },
      {
        "name": "藏东与藏北",
        "range": "川西边缘 - 昌都 - 那曲 - 班戈",
        "copy": "从川西边缘向西，路面先进入横断山的褶皱。"
      },
      {
        "name": "阿里方向",
        "range": "班戈 - 阿里狮泉河",
        "copy": "从班戈向西，路线离开纳木错北岸的水草光泽，进入藏北羌塘更辽阔也更寂静的一面。"
      },
      {
        "name": "江源支线",
        "range": "沱沱河 - 可可西里 - 格尔木",
        "copy": "江源支线从沱沱河起笔，沿青藏公路与青藏铁路北行，穿过可可西里东缘，再下降到柴达木盆地南部的格尔木。"
      }
    ],
    "notes": [
      "这条线可以从海口逆行，也可以分段顺江阅读。",
      "江源支线与城市长江差异巨大，最好作为独立高原章节。",
      "长江在这里不是一条蓝线，而是一组平原、湖泊、峡谷、盆地与高原的关系。"
    ]
  },
  {
    "id": "east-west",
    "order": 4,
    "shortName": "东西极",
    "title": "中国东西极之路",
    "kicker": "从西陲绿洲到东方界江",
    "mainFile": "东西极主线.kml",
    "branchFile": "东西极支线.kml",
    "mainLabel": "喀什、昆仑北麓、柴达木、青甘高地、秦岭、华北、东北平原与抚远东极",
    "branchLabel": "伊春与黑河的东北北上支线",
    "color": "#7c5cc4",
    "accent": "#d09a2d",
    "image": "assets/route-thumbnails/east-west.svg",
    "tagline": "从喀什、昆仑北麓、塔克拉玛干南缘、柴达木、青甘高地、秦岭门户、华北关口一路到东北平原与抚远东极，这条路把中国地图的横向宽度变成一次可驾驶的地理剖面。",
    "overview": "东西极之路不是简单追逐最西与最东的符号。它的价值在于沿途不断更换地理单元：绿洲、荒漠、盐湖、高原、秦岭、古都、长城、平原、林海与界江依次出现，使中国的宽度变得可感。",
    "bestFor": [
      "想感受中国横向尺度的人",
      "喜欢边境、荒原、高地、平原和界江的人",
      "愿意用分段旅行承受辽阔的人"
    ],
    "season": "这条线横跨的气候差异极大。西北的干风、青甘的高地、东北的寒冷与湿润，都值得分季节慢慢读。",
    "highlights": [
      "喀什、叶城、和田与塔里木南缘",
      "若羌、茫崖、德令哈与柴达木",
      "西宁、夏河、若尔盖与甘南草原",
      "广元、汉中、宝鸡与秦岭门户",
      "包头、北京、秦皇岛与华北转场",
      "长春、哈尔滨、牡丹江、佳木斯",
      "同江、抚远与东极广场",
      "伊春、黑河支线"
    ],
    "markers": [
      {
        "name": "喀什",
        "lon": 75.99,
        "lat": 39.47,
        "type": "main"
      },
      {
        "name": "叶城",
        "lon": 77.42,
        "lat": 37.88,
        "type": "main"
      },
      {
        "name": "和田",
        "lon": 79.92,
        "lat": 37.12,
        "type": "main"
      },
      {
        "name": "若羌",
        "lon": 88.17,
        "lat": 39.02,
        "type": "main"
      },
      {
        "name": "茫崖",
        "lon": 90.86,
        "lat": 38.25,
        "type": "main"
      },
      {
        "name": "德令哈",
        "lon": 97.37,
        "lat": 37.37,
        "type": "main"
      },
      {
        "name": "西宁",
        "lon": 101.78,
        "lat": 36.62,
        "type": "main"
      },
      {
        "name": "夏河",
        "lon": 102.52,
        "lat": 35.2,
        "type": "main"
      },
      {
        "name": "若尔盖",
        "lon": 102.96,
        "lat": 33.58,
        "type": "main"
      },
      {
        "name": "广元",
        "lon": 105.84,
        "lat": 32.44,
        "type": "main"
      },
      {
        "name": "汉中",
        "lon": 107.02,
        "lat": 33.07,
        "type": "main"
      },
      {
        "name": "宝鸡",
        "lon": 107.14,
        "lat": 34.36,
        "type": "main"
      },
      {
        "name": "包头",
        "lon": 109.84,
        "lat": 40.66,
        "type": "main"
      },
      {
        "name": "北京",
        "lon": 116.4,
        "lat": 39.9,
        "type": "main"
      },
      {
        "name": "秦皇岛",
        "lon": 119.6,
        "lat": 39.94,
        "type": "main"
      },
      {
        "name": "长春",
        "lon": 125.32,
        "lat": 43.82,
        "type": "main"
      },
      {
        "name": "哈尔滨",
        "lon": 126.64,
        "lat": 45.75,
        "type": "main"
      },
      {
        "name": "牡丹江",
        "lon": 129.63,
        "lat": 44.55,
        "type": "main"
      },
      {
        "name": "佳木斯",
        "lon": 130.32,
        "lat": 46.8,
        "type": "main"
      },
      {
        "name": "同江",
        "lon": 132.51,
        "lat": 47.64,
        "type": "main"
      },
      {
        "name": "抚远",
        "lon": 134.3,
        "lat": 48.36,
        "type": "main"
      },
      {
        "name": "东极广场",
        "lon": 134.75,
        "lat": 48.36,
        "type": "main"
      },
      {
        "name": "伊春",
        "lon": 128.84,
        "lat": 47.73,
        "type": "branch"
      },
      {
        "name": "黑河",
        "lon": 127.53,
        "lat": 50.25,
        "type": "branch"
      }
    ],
    "segments": [
      {
        "name": "西部边境",
        "range": "喀什 - 叶城 - 和田",
        "copy": "这段从喀什出发，沿G315西行旧脉与南疆绿洲带向叶城、和田推进，真正的背景不是单一公路，而是塔里木盆地西南缘的山前冲积扇。"
      },
      {
        "name": "荒漠与柴达木",
        "range": "和田 - 若羌 - 茫崖 - 德令哈",
        "copy": "从和田向东，路线离开玉龙喀什河与喀拉喀什河养出的绿洲，沿G315贴着塔克拉玛干南缘前行。"
      },
      {
        "name": "青甘高地",
        "range": "德令哈 - 西宁 - 夏河 - 若尔盖",
        "copy": "德令哈到若尔盖这一段，是东西极之路最明显的一次气候与水系转场：车轮从柴达木盆地东北缘的盐湖、戈壁和风蚀荒原驶出，进入湟水谷地、日月山分水岭、甘南大夏河谷，最后抵达黄河上游的若尔盖湿地。"
      },
      {
        "name": "秦岭门户",
        "range": "若尔盖 - 广元 - 汉中 - 宝鸡",
        "copy": "若尔盖到宝鸡，不是一次单纯的“翻山”。它先从黄河上游的高原湿地边缘离开，经郎木寺、白龙江、陇南山地转入嘉陵江系统，再借广元、汉中、宝鸡把秦巴山地和关中西口接在一起。水系在这里换挡，路的性格也随之改变。"
      },
      {
        "name": "华北转场",
        "range": "宝鸡 - 包头 - 北京 - 秦皇岛",
        "copy": "宝鸡以东，秦岭北麓的山影没有立刻消失，而是退到渭河南岸，给关中平原留出一条狭长、肥沃、被古都反复经营过的走廊。车从宝鸡峡一带进入渭河谷地，周原、岐山、扶风、咸阳、西安依次展开，像是在读一部被河流排好章节的早期中国史。"
      },
      {
        "name": "东北平原",
        "range": "秦皇岛 - 长春 - 哈尔滨 - 牡丹江",
        "copy": "北京到哈尔滨的这段东北平原，不是从一片平地直接驶向另一片平地。它先从华北平原北端钻进燕山，再经承德的热河谷地、赤峰的西辽河上游、通辽的科尔沁沙地与草原农田，最后落入松辽平原的黑土带和松花江畔的铁路城市。"
      },
      {
        "name": "东极收束",
        "range": "佳木斯 - 同江 - 抚远 - 东极广场",
        "copy": "哈尔滨以松花江和铁路把东北腹地接入这段终章。中东铁路留下的桥梁、站场和俄式街区，使它不是普通大城中转，而是一处现代东北从江岸、铁轨和寒地生活里长出的入口。"
      },
      {
        "name": "东北北上支线",
        "range": "伊春 - 黑河",
        "copy": "这条北上支线从哈尔滨离开松花江畔，先穿过松嫩平原的开阔农田和铁路城镇，再沿嫩江水系逼近大兴安岭，最后抵达漠河与黑龙江界江。它不是简单的“找北”行程，而是一条把东北城市、湿地、林区和边境河流依次展开的纬度剖面。"
      }
    ],
    "notes": [
      "横贯线的关键不是一味赶路，而是让边界、荒原和城市群轮流显形。",
      "西端和东端都很强，最好把它们当作两枚地图锚点。",
      "伊春、黑河支线可作为东北林海与界江的补章。"
    ]
  },
  {
    "id": "south-north",
    "order": 5,
    "shortName": "南北极",
    "title": "中国南北极之路",
    "kicker": "从热带海风到北国寒林",
    "mainFile": "南北极主线.kml",
    "branchFile": "南北极支线.kml",
    "mainLabel": "海南、琼州海峡、岭南入陆、武陵秦巴、晋南古建、华北北缘与大兴安岭",
    "branchLabel": "壶口、碛口、佳县、偏关的黄河支线",
    "color": "#b54646",
    "accent": "#2d7f95",
    "image": "assets/route-thumbnails/south-north.svg",
    "tagline": "中国南北极之路从海南岛的热带海岸出发，渡过琼州海峡，穿岭南、西江、中部山地、晋南古城、华北北缘和大兴安岭，最后抵达北极村与黑龙江界江。",
    "overview": "这是一条气候剖面，也是一条生活方式的剖面。椰林、港口、岭南河谷、湘楚水网、秦晋古道、太行北缘、口外草地和寒地森林在同一条南北线上缓慢换场。",
    "bestFor": [
      "想看中国南北气候差异的人",
      "喜欢热带海岸、山地峡谷、古建和寒地森林的人",
      "愿意把南方、华北、东北分季节完成的人"
    ],
    "season": "南北温差是这条线的灵魂。海南、武陵山、山西与大兴安岭最好分开选择季节，让每一段都保留自己的气候表情。",
    "highlights": [
      "三亚、琼海、海口与琼州海峡",
      "湛江、柳州与南方河谷",
      "恩施、神农架与中部山地",
      "三门峡、运城、临汾、平遥、太原",
      "北京、承德与华北北缘",
      "漠河与北极村",
      "壶口、碛口、佳县、偏关黄河支线"
    ],
    "markers": [
      {
        "name": "三亚",
        "lon": 109.51,
        "lat": 18.25,
        "type": "main"
      },
      {
        "name": "琼海",
        "lon": 110.47,
        "lat": 19.25,
        "type": "main"
      },
      {
        "name": "海口",
        "lon": 110.32,
        "lat": 20.03,
        "type": "main"
      },
      {
        "name": "徐闻",
        "lon": 110.18,
        "lat": 20.33,
        "type": "main"
      },
      {
        "name": "湛江",
        "lon": 110.36,
        "lat": 21.27,
        "type": "main"
      },
      {
        "name": "柳州",
        "lon": 109.42,
        "lat": 24.33,
        "type": "main"
      },
      {
        "name": "恩施",
        "lon": 109.49,
        "lat": 30.29,
        "type": "main"
      },
      {
        "name": "神农架",
        "lon": 110.67,
        "lat": 31.75,
        "type": "main"
      },
      {
        "name": "三门峡",
        "lon": 111.2,
        "lat": 34.77,
        "type": "main"
      },
      {
        "name": "运城",
        "lon": 111,
        "lat": 35.02,
        "type": "main"
      },
      {
        "name": "临汾",
        "lon": 111.52,
        "lat": 36.09,
        "type": "main"
      },
      {
        "name": "平遥",
        "lon": 112.18,
        "lat": 37.19,
        "type": "main"
      },
      {
        "name": "太原",
        "lon": 112.55,
        "lat": 37.87,
        "type": "main"
      },
      {
        "name": "北京",
        "lon": 116.4,
        "lat": 39.9,
        "type": "main"
      },
      {
        "name": "承德",
        "lon": 117.94,
        "lat": 40.98,
        "type": "main"
      },
      {
        "name": "漠河",
        "lon": 122.54,
        "lat": 52.97,
        "type": "main"
      },
      {
        "name": "北极村",
        "lon": 122.35,
        "lat": 53.49,
        "type": "main"
      },
      {
        "name": "壶口瀑布",
        "lon": 110.43,
        "lat": 36.15,
        "type": "branch"
      },
      {
        "name": "碛口",
        "lon": 110.75,
        "lat": 37.64,
        "type": "branch"
      },
      {
        "name": "佳县",
        "lon": 110.49,
        "lat": 38.02,
        "type": "branch"
      },
      {
        "name": "偏关",
        "lon": 111.51,
        "lat": 39.44,
        "type": "branch"
      }
    ],
    "segments": [
      {
        "name": "热带开场",
        "range": "三亚 - 琼海 - 海口",
        "copy": "这段路从三亚西侧的天涯海角与南海岸线起步，先把“最南端”的感受落在海风、岬角、椰影和湿热光线里，再向北穿入岛心，进入五指山与鹦哥岭撑起的热带山地。"
      },
      {
        "name": "渡海入陆",
        "range": "海口 - 徐闻 - 湛江 - 柳州",
        "copy": "这一段不是简单从海南回到大陆，而是把南北纵贯线第一次切开又接上：海口的码头、琼州海峡的潮流、徐闻的港区和雷州半岛的红土，共同把岛屿旅行变成大陆行旅。"
      },
      {
        "name": "中部山地",
        "range": "柳州 - 恩施 - 神农架",
        "copy": "这一段从桂北、湘南的山口进入湖南腹地，真正把南北极之路从岭南水汽带到长江中游。南岭并不是不可逾越的墙，而是一组被河谷、低鞍部和古道切开的分水岭；公路北上时，山势一退一进，水流也从珠江系统转向湘江系统。"
      },
      {
        "name": "晋南与古城",
        "range": "三门峡 - 运城 - 临汾 - 平遥 - 太原",
        "copy": "这一段是中国南北极之路的历史铰链。"
      },
      {
        "name": "华北北缘",
        "range": "太原 - 北京 - 承德",
        "copy": "从平遥、太原北上到大同、张家口，再折向承德与北京北缘，这一段不是简单进入华北城市带，而是在山西盆地、晋北长城、桑干河谷、坝上高原和燕山之间连续越过几道“门”。"
      },
      {
        "name": "北国森林",
        "range": "承德 - 漠河 - 北极村",
        "copy": "承德之后的北上，不是一下子进入大兴安岭，而是先经过燕山北缘、木兰围场和塞罕坝。这里把皇家猎苑、坝上草甸、人工林和滦河、辽河上游水源压在同一块高地上，像北国森林的序章。"
      },
      {
        "name": "黄河支线",
        "range": "壶口 - 碛口 - 佳县 - 偏关",
        "copy": "黄河支线是南北极之路在黄土高原上的一次横向回望。它从壶口瀑布附近切入晋陕黄河，沿峡谷、古渡、石城和边墙北上，把主线在晋南、山西古建和华北北缘之间没有完全展开的黄河中游补足。"
      }
    ],
    "notes": [
      "这条线不追求轻松，而追求从南到北的剧烈转换。",
      "黄河支线是中段的历史回望，可与晋南古城一同阅读。",
      "北端不只是一个符号，而是一整片森林、界江和寒地生活。"
    ]
  },
  {
    "id": "western-vertical",
    "order": 6,
    "shortName": "西纵",
    "title": "西部纵贯之路",
    "kicker": "沿横断与边地北上",
    "mainFile": "西纵主线.kml",
    "branchFile": "西纵支线.kml",
    "mainLabel": "西双版纳、滇西北、藏东、拉萨后藏、阿里、南疆、天山与北疆",
    "branchLabel": "塔城、赛里木湖、霍尔果斯的天山西段支线",
    "color": "#8a7a2d",
    "accent": "#315a8c",
    "image": "assets/route-thumbnails/western-vertical.svg",
    "tagline": "西部纵贯从西双版纳、普洱和临沧的热带茶山出发，沿滇西北、藏东、拉萨后藏、阿里、新藏线、南疆和北疆一路北上，把中国西部最剧烈的垂直落差写成一条长脊。",
    "overview": "这条路的主题不是距离，而是海拔、气候和边地尺度的连续抬升。热带雨林、古茶山、横断山峡谷、高原城市、阿里荒原、昆仑绿洲、天山和阿尔泰在同一条纵线里接力。",
    "bestFor": [
      "想体验西部海拔和气候垂直变化的人",
      "喜欢横断山、藏地、阿里、南疆和北疆的人",
      "能接受高强度分段旅行的人"
    ],
    "season": "这条线最好拆成滇南、滇西北、藏东后藏、阿里南疆、北疆几卷。每一卷都有自己的海拔、风和道路表情。",
    "highlights": [
      "勐腊、景洪、普洱与热带边境",
      "大理、丽江、香格里拉、德钦",
      "然乌、波密、林芝与藏东",
      "拉萨、日喀则、定日与阿里",
      "和田、库车与南疆北上",
      "独山子、克拉玛依、喀纳斯",
      "塔城、赛里木湖、霍尔果斯支线"
    ],
    "markers": [
      {
        "name": "勐腊",
        "lon": 101.56,
        "lat": 21.48,
        "type": "main"
      },
      {
        "name": "景洪",
        "lon": 100.8,
        "lat": 22.01,
        "type": "main"
      },
      {
        "name": "普洱",
        "lon": 100.97,
        "lat": 22.78,
        "type": "main"
      },
      {
        "name": "临沧",
        "lon": 100.09,
        "lat": 23.88,
        "type": "main"
      },
      {
        "name": "大理",
        "lon": 100.27,
        "lat": 25.61,
        "type": "main"
      },
      {
        "name": "丽江",
        "lon": 100.23,
        "lat": 26.87,
        "type": "main"
      },
      {
        "name": "香格里拉",
        "lon": 99.71,
        "lat": 27.83,
        "type": "main"
      },
      {
        "name": "德钦",
        "lon": 98.91,
        "lat": 28.49,
        "type": "main"
      },
      {
        "name": "然乌",
        "lon": 96.77,
        "lat": 29.5,
        "type": "main"
      },
      {
        "name": "波密",
        "lon": 95.77,
        "lat": 29.86,
        "type": "main"
      },
      {
        "name": "林芝",
        "lon": 94.36,
        "lat": 29.65,
        "type": "main"
      },
      {
        "name": "拉萨",
        "lon": 91.13,
        "lat": 29.65,
        "type": "main"
      },
      {
        "name": "日喀则",
        "lon": 88.88,
        "lat": 29.27,
        "type": "main"
      },
      {
        "name": "定日",
        "lon": 87.12,
        "lat": 28.66,
        "type": "main"
      },
      {
        "name": "阿里狮泉河",
        "lon": 80.1,
        "lat": 32.5,
        "type": "main"
      },
      {
        "name": "和田",
        "lon": 79.92,
        "lat": 37.12,
        "type": "main"
      },
      {
        "name": "库车",
        "lon": 82.96,
        "lat": 41.72,
        "type": "main"
      },
      {
        "name": "独山子",
        "lon": 84.89,
        "lat": 44.33,
        "type": "main"
      },
      {
        "name": "克拉玛依",
        "lon": 84.89,
        "lat": 45.58,
        "type": "main"
      },
      {
        "name": "喀纳斯",
        "lon": 87.04,
        "lat": 48.69,
        "type": "main"
      },
      {
        "name": "塔城",
        "lon": 82.98,
        "lat": 46.75,
        "type": "branch"
      },
      {
        "name": "赛里木湖",
        "lon": 81.2,
        "lat": 44.6,
        "type": "branch"
      },
      {
        "name": "霍尔果斯",
        "lon": 80.42,
        "lat": 44.2,
        "type": "branch"
      }
    ],
    "segments": [
      {
        "name": "热带边地",
        "range": "勐腊 - 景洪 - 普洱 - 临沧",
        "copy": "西部纵贯从勐腊、磨憨一带起步，不是从雪山而是从北回归线以南的湿热低地进入中国西部。G213在磨憨把中国路网接向老挝13号公路，中老铁路又把口岸拉入昆明至万象的跨境通道想象；这里的边地首先是流动的边地。"
      },
      {
        "name": "滇西北上升",
        "range": "临沧 - 大理 - 丽江 - 香格里拉 - 德钦",
        "copy": "大理到德钦这一段，是西部纵贯从云南湖盆真正抬入横断山的门槛。"
      },
      {
        "name": "藏东山谷",
        "range": "德钦 - 然乌 - 波密 - 林芝",
        "copy": "德钦之后，西部纵贯从滇西北的雪山观景线转入真正的横断山腹地。G214沿澜沧江峡谷北上，经盐井抵达芒康；在那里，滇藏线与川藏南线相接，路线随G318转向左贡、邦达、八宿与然乌。"
      },
      {
        "name": "拉萨与后藏",
        "range": "林芝 - 拉萨 - 日喀则 - 定日",
        "copy": "林芝到拉萨，是西部纵贯从藏东湿润山谷进入卫藏腹地的门槛。车路先贴近尼洋河与工布江达一线，逆着河谷向米拉山抬升，再落入拉萨河谷，森林、湿地、村庄和寺院城镇在短距离内连续换场。"
      },
      {
        "name": "阿里转场",
        "range": "定日 - 阿里狮泉河",
        "copy": "从日喀则向西，西部纵贯离开后藏河谷的寺院、农田和县城密度，沿拉孜、萨嘎、仲巴一线进入老G219新藏公路的核心地带。这里的路不再靠连续城镇推进，而靠河谷、山口、检查站、加油点和高原小城把漫长距离切成可以承受的段落。"
      },
      {
        "name": "南疆北上",
        "range": "阿里 - 和田 - 库车",
        "copy": "南疆北上不是简单从西藏进新疆，而是一次从高原内陆水系跌落到塔里木盆地边缘的巨大转场。狮泉河仍带着阿里的高寒河谷气息，叶城已经属于昆仑北麓的绿洲门槛，和田、库车则把沙漠边缘的水、城、手艺和古道重新推到路面两侧。"
      },
      {
        "name": "北疆收束",
        "range": "库车 - 独山子 - 克拉玛依 - 喀纳斯",
        "copy": "北疆收束不是把终点简单放在喀纳斯湖边，而是把西部纵贯最后一次巨大的地理换场完整呈现出来：从塔里木盆地北缘的库车绿洲出发，沿G217独库公路翻越天山，再穿过准噶尔盆地西北缘，最后进入阿勒泰山森林与边境湖泊。"
      },
      {
        "name": "天山西段支线",
        "range": "塔城 - 赛里木湖 - 霍尔果斯",
        "copy": "天山西段支线不是北疆终点的附录，而是把西部纵贯从阿尔泰、准噶尔边缘引向天山最西口的一次横向展开。塔城、赛里木湖、霍尔果斯和伊宁之间，城市、山地、湖盆、峡谷与口岸连续切换。"
      }
    ],
    "notes": [
      "它不是轻松观光线，而是一条需要敬畏的西部剖面。",
      "高原和边地段应留出更多缓冲，把速度交给地形。",
      "天山西段支线让终章不止喀纳斯，也包括赛湖与口岸。"
    ]
  },
  {
    "id": "central-vertical",
    "order": 7,
    "shortName": "中纵",
    "title": "中部纵贯之路",
    "kicker": "从桂中山地到祁连关城",
    "mainFile": "中纵主线.kml",
    "branchFile": "中纵支线.kml",
    "mainLabel": "贵港、南宁、百色、黔西、川西南、甘南、西宁、张掖、嘉峪关",
    "branchLabel": "乐山、雅安、康定、理塘的川西支线",
    "color": "#4f7f2d",
    "accent": "#a44f77",
    "image": "assets/route-thumbnails/central-vertical.svg",
    "tagline": "中部纵贯从桂中、右江、黔西喀斯特、川西南、甘南、青海门户一路走到张掖、酒泉、嘉峪关，把南方河谷、高原门廊和河西走廊接成一架不平直的地形阶梯。",
    "overview": "这条路线看似南北纵贯，真正的性格却是不断转折。右江和西江水系把南端打开，黔西喀斯特让路面抬升，安宁河谷与川西边缘转入高原门廊，祁连山雪水又把它送到河西绿洲。",
    "bestFor": [
      "想从南方山地一路读到河西的人",
      "喜欢喀斯特、高原边缘、甘南寺院和祁连山的人",
      "愿意避开传统大通道、寻找过渡地带的人"
    ],
    "season": "南段多雨湿润，北段干冷开阔。把桂黔、川西南、甘南青海、河西分章行走，能看见地形逐级升高的秩序。",
    "highlights": [
      "贵港、南宁与桂西",
      "百色、黄果树与黔西山地",
      "西昌与川西南",
      "久治、甘南、夏河",
      "西宁、张掖、酒泉、嘉峪关",
      "乐山、雅安、康定、理塘支线"
    ],
    "markers": [
      {
        "name": "贵港",
        "lon": 109.6,
        "lat": 23.11,
        "type": "main"
      },
      {
        "name": "南宁",
        "lon": 108.37,
        "lat": 22.82,
        "type": "main"
      },
      {
        "name": "百色",
        "lon": 106.62,
        "lat": 23.9,
        "type": "main"
      },
      {
        "name": "黄果树",
        "lon": 105.67,
        "lat": 25.99,
        "type": "main"
      },
      {
        "name": "西昌",
        "lon": 102.26,
        "lat": 27.89,
        "type": "main"
      },
      {
        "name": "久治",
        "lon": 101.48,
        "lat": 33.43,
        "type": "main"
      },
      {
        "name": "甘南",
        "lon": 102.91,
        "lat": 34.98,
        "type": "main"
      },
      {
        "name": "夏河",
        "lon": 102.52,
        "lat": 35.2,
        "type": "main"
      },
      {
        "name": "西宁",
        "lon": 101.78,
        "lat": 36.62,
        "type": "main"
      },
      {
        "name": "张掖",
        "lon": 100.45,
        "lat": 38.93,
        "type": "main"
      },
      {
        "name": "酒泉",
        "lon": 98.49,
        "lat": 39.73,
        "type": "main"
      },
      {
        "name": "嘉峪关",
        "lon": 98.29,
        "lat": 39.77,
        "type": "main"
      },
      {
        "name": "乐山",
        "lon": 103.77,
        "lat": 29.55,
        "type": "branch"
      },
      {
        "name": "雅安",
        "lon": 103,
        "lat": 29.98,
        "type": "branch"
      },
      {
        "name": "康定",
        "lon": 101.96,
        "lat": 30.05,
        "type": "branch"
      },
      {
        "name": "理塘",
        "lon": 100.27,
        "lat": 29.99,
        "type": "branch"
      }
    ],
    "segments": [
      {
        "name": "桂中开场",
        "range": "贵港 - 南宁 - 百色",
        "copy": "桂中开场并不是从高山或名胜突然起步，而是从西江水系的内河秩序里进入中部纵贯。贵港、南宁、百色三座城沿郁江、邕江、右江展开，车行方向像是在逆着一条古老水道回溯源头。"
      },
      {
        "name": "黔西山地",
        "range": "百色 - 黄果树",
        "copy": "从百色北上兴义，再经安顺、黄果树转向六盘水，这一段把中部纵贯从右江河谷推入贵州西部山地。海拔、湿度、岩石形态和道路尺度连续改变，车窗外的广西边地逐渐换成滇黔桂交界处的喀斯特高原。"
      },
      {
        "name": "川西南转折",
        "range": "黄果树 - 西昌",
        "copy": "这一段从黔西高原向川西南转折，真正的主角不是单个景区，而是乌蒙山、金沙江和横断山东缘共同挤出的通道。六盘水、毕节一带的高山草甸、煤系山地和喀斯特台面仍有贵州的湿冷气息，越往昭通方向，山体越显得干硬，河谷越深。"
      },
      {
        "name": "高原边缘",
        "range": "西昌 - 久治 - 甘南 - 夏河",
        "copy": "这一段不是从平原突然跳到高原，而是沿着四川盆地西缘、横断山东缘和青藏高原东坡，一层层把海拔、气候和人群关系抬高。乐山仍是岷江、大渡河、青衣江汇合的巴蜀水口，雅安已经带出雨城、藏茶和茶马古道的山门气息，康定之后才真正进入康巴山地。"
      },
      {
        "name": "青海门户",
        "range": "夏河 - 西宁",
        "copy": "久治到西宁这一段，不是简单从草原开进省会，而是从青海果洛东缘、黄河首曲、甘南州府与拉卜楞寺，逐步收束到河湟谷地。中部纵贯线在这里第一次显出青藏高原东北缘的完整结构：源流、湿地、牧场、寺院、河谷城市和通往河西的出口连续相接。"
      },
      {
        "name": "河西收束",
        "range": "西宁 - 张掖 - 酒泉 - 嘉峪关",
        "copy": "这一段从西宁出发，不是简单向西北赶到河西走廊，而是从湟水河谷抬升、翻越祁连山，再落入张掖绿洲的完整地理转换。河湟谷地把青藏高原东北缘、黄土高原和多民族交通史收在一处，G227西张线则把这种谷地秩序推向达坂山、门源、俄博和扁都口。"
      },
      {
        "name": "川西支线",
        "range": "乐山 - 雅安 - 康定 - 理塘",
        "copy": "川西支线从乐山三江汇流处起笔，先把岷江、大渡河、青衣江的水系关系放在车窗前，再沿雅安方向进入四川盆地西缘最湿润的一角。这里不是高原的突然开场，而是河流、茶山和盆地边城共同铺出的前奏。"
      }
    ],
    "notes": [
      "这条线的重点是过渡地带，而非单一景观。",
      "川西支线为全线补入盆地西缘和高原山口的厚度。",
      "抵达嘉峪关时，中部纵贯与丝路河西自然相接。"
    ]
  },
  {
    "id": "south-china",
    "order": 8,
    "shortName": "华南",
    "title": "徐霞客最后远游之路",
    "kicker": "循徐霞客最后远游入西南",
    "mainFile": "华南主线.kml",
    "branchFile": "华南支线.kml",
    "mainLabel": "江南、皖赣山地、湘桂山水、黔中喀斯特、滇西与瑞丽",
    "branchLabel": "弥勒、建水、玉溪、抚仙湖、昆明的滇中支线",
    "color": "#0f766e",
    "accent": "#d07a2d",
    "image": "assets/route-thumbnails/south-china.svg",
    "tagline": "徐霞客华南远游从江南出发，穿皖赣山地、湘桂峰林、黔桂喀斯特、滇中湖盆和滇西边地。它不是普通华南路线，而是一场以身体、山水观察和晚年意志共同完成的长途书写。",
    "overview": "这条线的核心不是到过哪些地方，而是徐霞客如何用行走理解山水。江南水网给远游以出发地，广西和贵州的喀斯特使观察进入地貌深处，云南则把湖盆、寺院、病痛、友人遗愿和边地道路压成终章。",
    "bestFor": [
      "喜欢徐霞客、山水观察和古今道路关系的人",
      "想从江南一路进入西南山地的人",
      "愿意在广西、贵州、云南慢行的人"
    ],
    "season": "南方山水最怕仓促。江南、桂西、黔中、滇西各有雨雾和晴光，慢行分段才接近徐霞客式的观察。",
    "highlights": [
      "徐霞客式山水考察",
      "太湖、常州与江南启程",
      "黄山、上饶与皖赣山地",
      "衡阳、桂林、阳朔、柳州",
      "荔波、贵阳、黄果树",
      "大理、保山、腾冲、瑞丽",
      "弥勒、建水、玉溪、抚仙湖、昆明支线"
    ],
    "markers": [
      {
        "name": "无锡",
        "lon": 120.31,
        "lat": 31.49,
        "type": "main"
      },
      {
        "name": "常州",
        "lon": 119.95,
        "lat": 31.78,
        "type": "main"
      },
      {
        "name": "黄山",
        "lon": 118.34,
        "lat": 29.71,
        "type": "main"
      },
      {
        "name": "上饶",
        "lon": 117.97,
        "lat": 28.44,
        "type": "main"
      },
      {
        "name": "衡阳",
        "lon": 112.61,
        "lat": 26.89,
        "type": "main"
      },
      {
        "name": "桂林",
        "lon": 110.29,
        "lat": 25.27,
        "type": "main"
      },
      {
        "name": "阳朔",
        "lon": 110.5,
        "lat": 24.78,
        "type": "main"
      },
      {
        "name": "柳州",
        "lon": 109.42,
        "lat": 24.33,
        "type": "main"
      },
      {
        "name": "荔波",
        "lon": 107.88,
        "lat": 25.41,
        "type": "main"
      },
      {
        "name": "贵阳",
        "lon": 106.63,
        "lat": 26.65,
        "type": "main"
      },
      {
        "name": "黄果树",
        "lon": 105.67,
        "lat": 25.99,
        "type": "main"
      },
      {
        "name": "大理",
        "lon": 100.27,
        "lat": 25.61,
        "type": "main"
      },
      {
        "name": "保山",
        "lon": 99.16,
        "lat": 25.12,
        "type": "main"
      },
      {
        "name": "腾冲",
        "lon": 98.49,
        "lat": 25.02,
        "type": "main"
      },
      {
        "name": "瑞丽",
        "lon": 97.85,
        "lat": 24.02,
        "type": "main"
      },
      {
        "name": "弥勒",
        "lon": 103.44,
        "lat": 24.41,
        "type": "branch"
      },
      {
        "name": "建水",
        "lon": 102.83,
        "lat": 23.63,
        "type": "branch"
      },
      {
        "name": "玉溪",
        "lon": 102.55,
        "lat": 24.35,
        "type": "branch"
      },
      {
        "name": "抚仙湖",
        "lon": 102.91,
        "lat": 24.57,
        "type": "branch"
      },
      {
        "name": "昆明",
        "lon": 102.83,
        "lat": 24.88,
        "type": "branch"
      }
    ],
    "segments": [
      {
        "name": "江南启程",
        "range": "无锡 - 常州 - 太湖周边",
        "copy": "江南启程不是一段平淡的序言，而是一套水网世界的打开。徐霞客的故里在江阴南部，贴近无锡、常州、太湖和江南运河；河浜、圩田、桥市、码头与低丘共同塑造了他最早理解道路的方式。"
      },
      {
        "name": "皖赣入山",
        "range": "常州 - 黄山 - 上饶",
        "copy": "这一段从徽州和黄山入笔，路线离开太湖水网之后，先被皖南山地收紧。黄山的花岗岩峰体、云雾、松石和峭壁步道，让徐霞客式观察从江南的河港与城镇，转向山体本身的纹理：石隙怎样成为路，溪谷怎样分出水，雾气又怎样遮蔽或显露一座山的骨架。"
      },
      {
        "name": "湘桂山水",
        "range": "上饶 - 衡阳 - 桂林 - 阳朔 - 柳州",
        "copy": "湘桂山水这一段真正的入口，不在桂林城下，而在湘南向南岭收束的低处。衡阳、永州、全州、兴安一线让人先看见一条古老走廊怎样穿过越城岭、海洋山和都庞岭之间的缝隙；现代公路、铁路和秦代水渠都在同一组分水岭附近寻找通道。"
      },
      {
        "name": "喀斯特腹地",
        "range": "柳州 - 荔波 - 贵阳 - 黄果树",
        "copy": "柳州之后，徐霞客线不再停留在桂林、阳朔那种被江水照亮的山水秩序里，而是进入更厚、更暗、更难辨认的喀斯特腹地。峰林仍在，洞穴仍在，水也仍在，只是它们开始被河池、南丹、黔南和安顺之间的山岭、土州、驿道与边地社会重新组织起来。"
      },
      {
        "name": "入滇西行",
        "range": "黄果树 - 大理 - 保山 - 腾冲",
        "copy": "贵阳、安顺往曲靖、昆明、大理西行，不只是省界转换，而是徐霞客最后远游进入云南腹地后的观察方式转换：贵州的喀斯特逼仄、瀑布和洞穴，逐渐让位给云南高原的红土台地、坝子、湖盆和山口。"
      },
      {
        "name": "滇西终章",
        "range": "腾冲 - 瑞丽",
        "copy": "滇西终章不是从腾冲突然开始的。大理的苍洱湖盆与宾川鸡足山先把这条远游线压低了声调：徐霞客背负静闻遗骨入滇，两次登鸡足山，居悉檀、大觉诸寺，又在病足难行时修《鸡足山志》，云南段从一开始就带着愿力、友情、佛山与迟暮身体交织的重量。"
      },
      {
        "name": "滇中支线",
        "range": "弥勒 - 建水 - 玉溪 - 抚仙湖 - 昆明",
        "copy": "滇中支线不是徐霞客晚年行迹的逐段复原，而是用他的水文、山脉和道路眼光，补看昆明以南这片湖盆、谷地与滇南门廊。"
      }
    ],
    "notes": [
      "这不是逐日复原，而是借徐霞客的目光读现代道路。",
      "广西重在山水观察，云南重在远游终章的情绪。",
      "滇中支线可作为高原湖盆与古城旁章。"
    ]
  }
]
